{
  "updated": [
    {
      "id": 8184,
      "name": "Reid's Fine Foods",
      "oldLat": 35.1612733,
      "oldLng": -80.848872,
      "newLat": 35.1612733,
      "newLng": -80.848872,
      "dist": "1.155"
    },
    {
      "id": 8201,
      "name": "Barcelona Wine Bar",
      "oldLat": 35.2115079,
      "oldLng": -80.8600267,
      "newLat": 35.2115079,
      "newLng": -80.8600267,
      "dist": "0.274"
    },
    {
      "id": 8202,
      "name": "Blue Door Pub",
      "oldLat": 35.2192696,
      "oldLng": -80.8608642,
      "newLat": 35.2192696,
      "newLng": -80.8608642,
      "dist": "0.686"
    },
    {
      "id": 8203,
      "name": "Brigid's Irish Pub",
      "oldLat": 35.2163724,
      "oldLng": -80.8561116,
      "newLat": 35.2163724,
      "newLng": -80.8561116,
      "dist": "0.388"
    },
    {
      "id": 8205,
      "name": "Craft Tasting Room & Growler Shop",
      "oldLat": 35.2199178,
      "oldLng": -80.8567954,
      "newLat": 35.2199178,
      "newLng": -80.8567954,
      "dist": "0.458"
    },
    {
      "id": 8206,
      "name": "Dolce & Amaro",
      "oldLat": 35.2115079,
      "oldLng": -80.8600267,
      "newLat": 35.2115079,
      "newLng": -80.8600267,
      "dist": "0.274"
    },
    {
      "id": 8207,
      "name": "Emmy Squared Pizza",
      "oldLat": 35.2116678,
      "oldLng": -80.8615489,
      "newLat": 35.2116678,
      "newLng": -80.8615489,
      "dist": "0.426"
    },
    {
      "id": 8209,
      "name": "Hawthorne's New York Pizza & Bar",
      "oldLat": 35.2152861,
      "oldLng": -80.8577064,
      "newLat": 35.2152861,
      "newLng": -80.8577064,
      "dist": "0.415"
    },
    {
      "id": 8210,
      "name": "HopFly Brewing Co.",
      "oldLat": 35.220507,
      "oldLng": -80.8575519,
      "newLat": 35.220507,
      "newLng": -80.8575519,
      "dist": "0.443"
    },
    {
      "id": 8212,
      "name": "Leroy Fox",
      "oldLat": 35.2141008,
      "oldLng": -80.8577913,
      "newLat": 35.2141008,
      "newLng": -80.8577913,
      "dist": "0.272"
    },
    {
      "id": 8213,
      "name": "Let's Meat Korean BBQ",
      "oldLat": 35.2191391,
      "oldLng": -80.8577349,
      "newLat": 35.2191391,
      "newLng": -80.8577349,
      "dist": "0.358"
    },
    {
      "id": 8214,
      "name": "Lincoln Street Kitchen + Cocktails",
      "oldLat": 35.2199178,
      "oldLng": -80.8567954,
      "newLat": 35.2199178,
      "newLng": -80.8567954,
      "dist": "0.458"
    },
    {
      "id": 8216,
      "name": "Monday Night Garden Co.",
      "oldLat": 35.2088503,
      "oldLng": -80.8665138,
      "newLat": 35.2088503,
      "newLng": -80.8665138,
      "dist": "0.478"
    },
    {
      "id": 8218,
      "name": "Nickyo's Rodeo",
      "oldLat": 35.2177719,
      "oldLng": -80.8550336,
      "newLat": 35.2177719,
      "newLng": -80.8550336,
      "dist": "0.584"
    },
    {
      "id": 8222,
      "name": "The Rose Honky Tonk",
      "oldLat": 35.2163615,
      "oldLng": -80.8547283,
      "newLat": 35.2163615,
      "newLng": -80.8547283,
      "dist": "0.427"
    },
    {
      "id": 8223,
      "name": "Sabor Latin Street Grill",
      "oldLat": 35.2141008,
      "oldLng": -80.8577913,
      "newLat": 35.2141008,
      "newLng": -80.8577913,
      "dist": "0.272"
    },
    {
      "id": 8224,
      "name": "Small Bar South End",
      "oldLat": 35.2097567,
      "oldLng": -80.8665744,
      "newLat": 35.2097567,
      "newLng": -80.8665744,
      "dist": "0.456"
    },
    {
      "id": 8225,
      "name": "Sushi Taku",
      "oldLat": 35.2161201,
      "oldLng": -80.8527262,
      "newLat": 35.2161201,
      "newLng": -80.8527262,
      "dist": "0.312"
    },
    {
      "id": 8226,
      "name": "Tacos El Flacko",
      "oldLat": 35.2052138,
      "oldLng": -80.8626188,
      "newLat": 35.2052138,
      "newLng": -80.8626188,
      "dist": "0.256"
    },
    {
      "id": 8227,
      "name": "Trolley Barn Fermentory & Food Hall",
      "oldLat": 35.2086881,
      "oldLng": -80.861583,
      "newLat": 35.2086881,
      "newLng": -80.861583,
      "dist": "0.309"
    },
    {
      "id": 8228,
      "name": "Tutti Gelato",
      "oldLat": 35.213627,
      "oldLng": -80.858082,
      "newLat": 35.213627,
      "newLng": -80.858082,
      "dist": "0.280"
    },
    {
      "id": 8229,
      "name": "Two Scoops Creamery",
      "oldLat": 35.2141008,
      "oldLng": -80.8577913,
      "newLat": 35.2141008,
      "newLng": -80.8577913,
      "dist": "0.272"
    },
    {
      "id": 8230,
      "name": "The Union",
      "oldLat": 35.2156303,
      "oldLng": -80.8538503,
      "newLat": 35.2156303,
      "newLng": -80.8538503,
      "dist": "0.397"
    },
    {
      "id": 8231,
      "name": "Wheatberry Bakeshop",
      "oldLat": 35.217772,
      "oldLng": -80.8564193,
      "newLat": 35.217772,
      "newLng": -80.8564193,
      "dist": "0.441"
    },
    {
      "id": 8232,
      "name": "Yume Sushi & Ramen",
      "oldLat": 35.2192696,
      "oldLng": -80.8608642,
      "newLat": 35.2192696,
      "newLng": -80.8608642,
      "dist": "0.686"
    },
    {
      "id": 8238,
      "name": "Belfast Mill Irish Pub",
      "oldLat": 35.2211752,
      "oldLng": -80.8509684,
      "newLat": 35.2211752,
      "newLng": -80.8509684,
      "dist": "0.604"
    },
    {
      "id": 8243,
      "name": "Free Range Brewing",
      "oldLat": 35.240454,
      "oldLng": -80.8132131,
      "newLat": 35.240454,
      "newLng": -80.8132131,
      "dist": "0.258"
    },
    {
      "id": 8244,
      "name": "Honeysuckle Gelato",
      "oldLat": 35.2340005,
      "oldLng": -80.8282186,
      "newLat": 35.2340005,
      "newLng": -80.8282186,
      "dist": "0.521"
    },
    {
      "id": 8245,
      "name": "Horace's Hot Chicken",
      "oldLat": 35.2498229,
      "oldLng": -80.8007492,
      "newLat": 35.2498229,
      "newLng": -80.8007492,
      "dist": "0.514"
    },
    {
      "id": 8246,
      "name": "Union Barbecue",
      "oldLat": 35.0972773,
      "oldLng": -80.7794151,
      "newLat": 35.0972773,
      "newLng": -80.7794151,
      "dist": "1.123"
    },
    {
      "id": 8247,
      "name": "The Queen and Glass",
      "oldLat": 35.2470822,
      "oldLng": -80.8051538,
      "newLat": 35.2470822,
      "newLng": -80.8051538,
      "dist": "0.258"
    },
    {
      "id": 8249,
      "name": "Boudreaux's Louisiana Kitchen",
      "oldLat": 35.2476807,
      "oldLng": -80.8042851,
      "newLat": 35.2476807,
      "newLng": -80.8042851,
      "dist": "0.322"
    },
    {
      "id": 8250,
      "name": "Joan's",
      "oldLat": 35.4460222,
      "oldLng": -80.8790951,
      "newLat": 35.4460222,
      "newLng": -80.8790951,
      "dist": "1.040"
    },
    {
      "id": 8252,
      "name": "Armored Cow Brewery",
      "oldLat": 35.2875675,
      "oldLng": -80.7303432,
      "newLat": 35.2875675,
      "newLng": -80.7303432,
      "dist": "1.430"
    },
    {
      "id": 8253,
      "name": "Fontana Di Vino",
      "oldLat": 35.14965,
      "oldLng": -80.8302661,
      "newLat": 35.14965,
      "newLng": -80.8302661,
      "dist": "0.260"
    }
  ],
  "confirmed": [
    {
      "id": 8091,
      "name": "Idlewild",
      "dist": "0.000"
    },
    {
      "id": 8092,
      "name": "Copperhead Social Club",
      "dist": "0.106"
    },
    {
      "id": 8093,
      "name": "Humbug",
      "dist": "0.000"
    },
    {
      "id": 8094,
      "name": "Substrate",
      "dist": "0.000"
    },
    {
      "id": 8095,
      "name": "Super Abari Game Bar",
      "dist": "0.000"
    },
    {
      "id": 8096,
      "name": "Lorem Ipsum",
      "dist": "0.000"
    },
    {
      "id": 8097,
      "name": "Frenchy's",
      "dist": "0.037"
    },
    {
      "id": 8098,
      "name": "Moosehead Grill",
      "dist": "0.000"
    },
    {
      "id": 8099,
      "name": "Sophia's Lounge",
      "dist": "0.078"
    },
    {
      "id": 8100,
      "name": "Fahrenheit",
      "dist": "0.000"
    },
    {
      "id": 8101,
      "name": "Middle C Jazz",
      "dist": "0.233"
    },
    {
      "id": 8102,
      "name": "The Cellar at Duckworth's",
      "dist": "0.098"
    },
    {
      "id": 8103,
      "name": "Aura Rooftop",
      "dist": "0.163"
    },
    {
      "id": 8104,
      "name": "Cloud Bar by David Burke",
      "dist": "0.206"
    },
    {
      "id": 8105,
      "name": "Buho",
      "dist": "0.036"
    },
    {
      "id": 8106,
      "name": "Merchant & Trade",
      "dist": "0.171"
    },
    {
      "id": 8107,
      "name": "Nuvole Rooftop TwentyTwo",
      "dist": "0.000"
    },
    {
      "id": 8108,
      "name": "Novelty House",
      "dist": "0.107"
    },
    {
      "id": 8109,
      "name": "204 North Kitchen & Cocktails",
      "dist": "0.088"
    },
    {
      "id": 8110,
      "name": "Cowbell Burger & Whiskey Bar",
      "dist": "0.058"
    },
    {
      "id": 8111,
      "name": "Dandelion Market",
      "dist": "0.108"
    },
    {
      "id": 8112,
      "name": "The Cotton Room",
      "dist": "0.214"
    },
    {
      "id": 8113,
      "name": "Crave Dessert Bar",
      "dist": "0.202"
    },
    {
      "id": 8114,
      "name": "Stable Hand",
      "dist": "0.000"
    },
    {
      "id": 8115,
      "name": "Dram & Draught",
      "dist": "0.000"
    },
    {
      "id": 8116,
      "name": "STIR",
      "dist": "0.000"
    },
    {
      "id": 8117,
      "name": "Henrietta's",
      "dist": "0.000"
    },
    {
      "id": 8118,
      "name": "Indaco",
      "dist": "0.000"
    },
    {
      "id": 8119,
      "name": "O-Ku",
      "dist": "0.242"
    },
    {
      "id": 8120,
      "name": "Superica",
      "dist": "0.000"
    },
    {
      "id": 8121,
      "name": "Charlotte Beer Garden",
      "dist": "0.000"
    },
    {
      "id": 8122,
      "name": "Triple C Brewing Company",
      "dist": "0.225"
    },
    {
      "id": 8123,
      "name": "Wooden Robot Brewery",
      "dist": "0.000"
    },
    {
      "id": 8124,
      "name": "Hi-Wire Brewing",
      "dist": "0.106"
    },
    {
      "id": 8125,
      "name": "PIE.ZAA",
      "dist": "0.000"
    },
    {
      "id": 8126,
      "name": "PARA",
      "dist": "0.060"
    },
    {
      "id": 8127,
      "name": "Catalú",
      "dist": "0.000"
    },
    {
      "id": 8128,
      "name": "Folia",
      "dist": "0.000"
    },
    {
      "id": 8129,
      "name": "Bang Bang Burgers",
      "dist": "0.060"
    },
    {
      "id": 8130,
      "name": "Cheat's Cheesesteaks",
      "dist": "0.000"
    },
    {
      "id": 8131,
      "name": "Seoul Food Meat Co.",
      "dist": "0.000"
    },
    {
      "id": 8132,
      "name": "Salted Melon Market & Eatery",
      "dist": "0.000"
    },
    {
      "id": 8133,
      "name": "The Waterman Fish Bar",
      "dist": "0.091"
    },
    {
      "id": 8134,
      "name": "United House of Prayer for All People Cafeteria",
      "dist": "0.236"
    },
    {
      "id": 8135,
      "name": "Cava",
      "dist": "0.249"
    },
    {
      "id": 8136,
      "name": "Shake Shack",
      "dist": "0.000"
    },
    {
      "id": 8137,
      "name": "North Italia",
      "dist": "0.000"
    },
    {
      "id": 8138,
      "name": "Velvet Taco",
      "dist": "0.000"
    },
    {
      "id": 8139,
      "name": "Hawkers Asian Street Fare",
      "dist": "0.000"
    },
    {
      "id": 8140,
      "name": "Sixty Vines",
      "dist": "0.000"
    },
    {
      "id": 8141,
      "name": "The Salty Donut",
      "dist": "0.000"
    },
    {
      "id": 8142,
      "name": "Snooze, an A.M. Eatery",
      "dist": "0.000"
    },
    {
      "id": 8143,
      "name": "Flower Child",
      "dist": "0.211"
    },
    {
      "id": 8144,
      "name": "Culinary Dropout",
      "dist": "0.000"
    },
    {
      "id": 8145,
      "name": "The Capital Grille",
      "dist": "0.000"
    },
    {
      "id": 8146,
      "name": "Del Frisco's Double Eagle Steakhouse",
      "dist": "0.000"
    },
    {
      "id": 8147,
      "name": "Jeni's Splendid Ice Creams",
      "dist": "0.000"
    },
    {
      "id": 8148,
      "name": "Mac's Speed Shop",
      "dist": "0.135"
    },
    {
      "id": 8149,
      "name": "Ruby Sunshine",
      "dist": "0.000"
    },
    {
      "id": 8150,
      "name": "Brooks' Sandwich House",
      "dist": "0.000"
    },
    {
      "id": 8151,
      "name": "Cabo Fish Taco",
      "dist": "0.223"
    },
    {
      "id": 8152,
      "name": "Amélie's French Bakery — NoDa",
      "dist": "0.178"
    },
    {
      "id": 8153,
      "name": "Bardo",
      "dist": "0.000"
    },
    {
      "id": 8154,
      "name": "Heist Brewery",
      "dist": "0.036"
    },
    {
      "id": 8156,
      "name": "Common Market — Plaza Midwood",
      "dist": "0.090"
    },
    {
      "id": 8157,
      "name": "Bistro La Bon",
      "dist": "0.000"
    },
    {
      "id": 8158,
      "name": "Bao + Broth",
      "dist": "0.000"
    },
    {
      "id": 8159,
      "name": "Papi Queso",
      "dist": "0.000"
    },
    {
      "id": 8160,
      "name": "Boxcar Betty's",
      "dist": "0.000"
    },
    {
      "id": 8161,
      "name": "Botiwalla",
      "dist": "0.000"
    },
    {
      "id": 8162,
      "name": "Lupie's Cafe",
      "dist": "0.000"
    },
    {
      "id": 8163,
      "name": "The Crunkleton",
      "dist": "0.000"
    },
    {
      "id": 8164,
      "name": "Mama Ricotta's",
      "dist": "0.130"
    },
    {
      "id": 8165,
      "name": "King's Kitchen",
      "dist": "0.112"
    },
    {
      "id": 8166,
      "name": "Halcyon, Flavors from the Earth",
      "dist": "0.000"
    },
    {
      "id": 8167,
      "name": "Stoke",
      "dist": "0.058"
    },
    {
      "id": 8168,
      "name": "Rí Rá Irish Pub",
      "dist": "0.060"
    },
    {
      "id": 8169,
      "name": "Connolly's on 5th",
      "dist": "0.081"
    },
    {
      "id": 8170,
      "name": "Café Monte French Bakery & Bistro",
      "dist": "0.000"
    },
    {
      "id": 8171,
      "name": "Pasta & Provisions",
      "dist": "0.000"
    },
    {
      "id": 8172,
      "name": "Ru San's",
      "dist": "0.000"
    },
    {
      "id": 8173,
      "name": "Selwyn Avenue Pub",
      "dist": "0.000"
    },
    {
      "id": 8174,
      "name": "Pinky's Westside Grill",
      "dist": "0.000"
    },
    {
      "id": 8175,
      "name": "The Mayobird",
      "dist": "0.000"
    },
    {
      "id": 8176,
      "name": "Living Kitchen",
      "dist": "0.242"
    },
    {
      "id": 8177,
      "name": "Bossy Beulah's Chicken Shack",
      "dist": "0.000"
    },
    {
      "id": 8178,
      "name": "Hoppin'",
      "dist": "0.000"
    },
    {
      "id": 8179,
      "name": "Yummi Banh Mi",
      "dist": "0.000"
    },
    {
      "id": 8180,
      "name": "North Harbor Club",
      "dist": "0.000"
    },
    {
      "id": 8181,
      "name": "Capishe Real Italian Kitchen",
      "dist": "0.000"
    },
    {
      "id": 8182,
      "name": "Yafo Kitchen",
      "dist": "0.000"
    },
    {
      "id": 8183,
      "name": "Sunflour Baking Company",
      "dist": "0.201"
    },
    {
      "id": 8185,
      "name": "Dressler's Restaurant — Metropolitan",
      "dist": "0.165"
    },
    {
      "id": 8186,
      "name": "Chapter 6",
      "dist": "0.000"
    },
    {
      "id": 8187,
      "name": "The Porter's House",
      "dist": "0.000"
    },
    {
      "id": 8188,
      "name": "Mizu",
      "dist": "0.000"
    },
    {
      "id": 8189,
      "name": "Oak Steakhouse",
      "dist": "0.043"
    },
    {
      "id": 8190,
      "name": "Ilios Noche",
      "dist": "0.000"
    },
    {
      "id": 8191,
      "name": "Ilios Crafted Greek — South End",
      "dist": "0.000"
    },
    {
      "id": 8193,
      "name": "SouthBound",
      "dist": "0.169"
    },
    {
      "id": 8194,
      "name": "NC RED",
      "dist": "0.000"
    },
    {
      "id": 8195,
      "name": "Old Town Kitchen & Cocktails",
      "dist": "0.000"
    },
    {
      "id": 8196,
      "name": "Chief's",
      "dist": "0.000"
    },
    {
      "id": 8197,
      "name": "Rosemont",
      "dist": "0.000"
    },
    {
      "id": 8198,
      "name": "Three Amigos",
      "dist": "0.000"
    },
    {
      "id": 8199,
      "name": "Harper's Restaurant — SouthPark",
      "dist": "0.000"
    },
    {
      "id": 8200,
      "name": "Mimosa Grill",
      "dist": "0.185"
    },
    {
      "id": 8204,
      "name": "Canopy Cocktail",
      "dist": "0.083"
    },
    {
      "id": 8208,
      "name": "Golden Cow Creamery",
      "dist": "0.183"
    },
    {
      "id": 8211,
      "name": "La Capital MX",
      "dist": "0.202"
    },
    {
      "id": 8215,
      "name": "Matador",
      "dist": "0.246"
    },
    {
      "id": 8217,
      "name": "Naked Farmer",
      "dist": "0.135"
    },
    {
      "id": 8219,
      "name": "Not Just Coffee",
      "dist": "0.242"
    },
    {
      "id": 8220,
      "name": "Poppy's Bagels",
      "dist": "0.228"
    },
    {
      "id": 8221,
      "name": "Rai Lay Thai",
      "dist": "0.226"
    },
    {
      "id": 8233,
      "name": "Hellenic Greek Kitchen",
      "dist": "0.189"
    },
    {
      "id": 8234,
      "name": "D9 Brewing — Uptown",
      "dist": "0.057"
    },
    {
      "id": 8235,
      "name": "French Quarter",
      "dist": "0.180"
    },
    {
      "id": 8236,
      "name": "Valhalla Pub & Eatery",
      "dist": "0.165"
    },
    {
      "id": 8237,
      "name": "The Local",
      "dist": "0.214"
    },
    {
      "id": 8239,
      "name": "Prohibition",
      "dist": "0.030"
    },
    {
      "id": 8240,
      "name": "Graham Street Pub & Patio",
      "dist": "0.218"
    },
    {
      "id": 8241,
      "name": "Ink N' Ivy",
      "dist": "0.057"
    },
    {
      "id": 8242,
      "name": "Petra's",
      "dist": "0.091"
    },
    {
      "id": 8248,
      "name": "Crepe Cellar Kitchen & Pub",
      "dist": "0.227"
    },
    {
      "id": 8251,
      "name": "Puerta",
      "dist": "0.241"
    }
  ],
  "no_geocode": [
    {
      "id": 8192,
      "name": "Paco's Tacos and Tequila",
      "address": "6401 Morrison Blvd Ste 9b, Charlotte NC 28211"
    }
  ],
  "outside_bbox": []
}