{
  "updated": [
    {
      "id": 8150,
      "name": "Brooks' Sandwich House",
      "oldLat": 35.2452701,
      "oldLng": -80.8114857,
      "newLat": 35.2452701,
      "newLng": -80.8114857,
      "dist": "0.394"
    },
    {
      "id": 8153,
      "name": "Bardo",
      "oldLat": 35.2260275,
      "oldLng": -80.8197616,
      "newLat": 35.2260275,
      "newLng": -80.8197616,
      "dist": "1.380"
    },
    {
      "id": 8157,
      "name": "Bistro La Bon",
      "oldLat": 35.2208013,
      "oldLng": -80.816419,
      "newLat": 35.2208013,
      "newLng": -80.816419,
      "dist": "0.271"
    },
    {
      "id": 8158,
      "name": "Bao + Broth",
      "oldLat": 35.2340005,
      "oldLng": -80.8282186,
      "newLat": 35.2340005,
      "newLng": -80.8282186,
      "dist": "0.521"
    },
    {
      "id": 8159,
      "name": "Papi Queso",
      "oldLat": 35.2340005,
      "oldLng": -80.8282186,
      "newLat": 35.2340005,
      "newLng": -80.8282186,
      "dist": "0.521"
    },
    {
      "id": 8160,
      "name": "Boxcar Betty's",
      "oldLat": 35.2340005,
      "oldLng": -80.8282186,
      "newLat": 35.2340005,
      "newLng": -80.8282186,
      "dist": "0.521"
    },
    {
      "id": 8161,
      "name": "Botiwalla",
      "oldLat": 35.2340005,
      "oldLng": -80.8282186,
      "newLat": 35.2340005,
      "newLng": -80.8282186,
      "dist": "0.521"
    },
    {
      "id": 8162,
      "name": "Lupie's Cafe",
      "oldLat": 35.2043493,
      "oldLng": -80.8086674,
      "newLat": 35.2043493,
      "newLng": -80.8086674,
      "dist": "1.109"
    },
    {
      "id": 8163,
      "name": "The Crunkleton",
      "oldLat": 35.2130232,
      "oldLng": -80.8186841,
      "newLat": 35.2130232,
      "newLng": -80.8186841,
      "dist": "0.396"
    },
    {
      "id": 8166,
      "name": "Halcyon, Flavors from the Earth",
      "oldLat": 35.2246048,
      "oldLng": -80.8484481,
      "newLat": 35.2246048,
      "newLng": -80.8484481,
      "dist": "0.321"
    },
    {
      "id": 8170,
      "name": "Café Monte French Bakery & Bistro",
      "oldLat": 35.147825,
      "oldLng": -80.829132,
      "newLat": 35.147825,
      "newLng": -80.829132,
      "dist": "0.949"
    },
    {
      "id": 8171,
      "name": "Pasta & Provisions",
      "oldLat": 35.1867766,
      "oldLng": -80.8218568,
      "newLat": 35.1867766,
      "newLng": -80.8218568,
      "dist": "0.496"
    },
    {
      "id": 8172,
      "name": "Ru San's",
      "oldLat": 35.1976569,
      "oldLng": -80.8518725,
      "newLat": 35.1976569,
      "newLng": -80.8518725,
      "dist": "0.700"
    },
    {
      "id": 8173,
      "name": "Selwyn Avenue Pub",
      "oldLat": 35.1746817,
      "oldLng": -80.8393976,
      "newLat": 35.1746817,
      "newLng": -80.8393976,
      "dist": "1.371"
    },
    {
      "id": 8174,
      "name": "Pinky's Westside Grill",
      "oldLat": 35.2291113,
      "oldLng": -80.8674332,
      "newLat": 35.2291113,
      "newLng": -80.8674332,
      "dist": "0.285"
    },
    {
      "id": 8175,
      "name": "The Mayobird",
      "oldLat": 35.200665,
      "oldLng": -80.842756,
      "newLat": 35.200665,
      "newLng": -80.842756,
      "dist": "0.507"
    },
    {
      "id": 8177,
      "name": "Bossy Beulah's Chicken Shack",
      "oldLat": 35.2155711,
      "oldLng": -80.856404,
      "newLat": 35.2155711,
      "newLng": -80.856404,
      "dist": "0.359"
    },
    {
      "id": 8178,
      "name": "Hoppin'",
      "oldLat": 35.2182758,
      "oldLng": -80.8562641,
      "newLat": 35.2182758,
      "newLng": -80.8562641,
      "dist": "0.373"
    },
    {
      "id": 8179,
      "name": "Yummi Banh Mi",
      "oldLat": 35.2128105,
      "oldLng": -80.766892,
      "newLat": 35.2128105,
      "newLng": -80.766892,
      "dist": "0.709"
    },
    {
      "id": 8180,
      "name": "North Harbor Club",
      "oldLat": 35.5060139,
      "oldLng": -80.8672547,
      "newLat": 35.5060139,
      "newLng": -80.8672547,
      "dist": "1.857"
    },
    {
      "id": 8181,
      "name": "Capishe Real Italian Kitchen",
      "oldLat": 35.1717886,
      "oldLng": -80.8515007,
      "newLat": 35.1717886,
      "newLng": -80.8515007,
      "dist": "0.544"
    },
    {
      "id": 8182,
      "name": "Yafo Kitchen",
      "oldLat": 35.1566687,
      "oldLng": -80.8244924,
      "newLat": 35.1566687,
      "newLng": -80.8244924,
      "dist": "0.467"
    },
    {
      "id": 8184,
      "name": "Reid's Fine Foods",
      "oldLat": 35.1612733,
      "oldLng": -80.848872,
      "newLat": 35.1612733,
      "newLng": -80.848872,
      "dist": "1.274"
    }
  ],
  "confirmed": [
    {
      "id": 8091,
      "name": "Idlewild",
      "dist": "0.000"
    },
    {
      "id": 8092,
      "name": "Copperhead Social Club",
      "dist": "0.106"
    },
    {
      "id": 8093,
      "name": "Humbug",
      "dist": "0.000"
    },
    {
      "id": 8094,
      "name": "Substrate",
      "dist": "0.000"
    },
    {
      "id": 8095,
      "name": "Super Abari Game Bar",
      "dist": "0.000"
    },
    {
      "id": 8096,
      "name": "Lorem Ipsum",
      "dist": "0.000"
    },
    {
      "id": 8097,
      "name": "Frenchy's",
      "dist": "0.037"
    },
    {
      "id": 8098,
      "name": "Moosehead Grill",
      "dist": "0.000"
    },
    {
      "id": 8099,
      "name": "Sophia's Lounge",
      "dist": "0.078"
    },
    {
      "id": 8100,
      "name": "Fahrenheit",
      "dist": "0.000"
    },
    {
      "id": 8101,
      "name": "Middle C Jazz",
      "dist": "0.233"
    },
    {
      "id": 8102,
      "name": "The Cellar at Duckworth's",
      "dist": "0.098"
    },
    {
      "id": 8103,
      "name": "Aura Rooftop",
      "dist": "0.163"
    },
    {
      "id": 8104,
      "name": "Cloud Bar by David Burke",
      "dist": "0.206"
    },
    {
      "id": 8105,
      "name": "Buho",
      "dist": "0.036"
    },
    {
      "id": 8106,
      "name": "Merchant & Trade",
      "dist": "0.171"
    },
    {
      "id": 8107,
      "name": "Nuvole Rooftop TwentyTwo",
      "dist": "0.000"
    },
    {
      "id": 8108,
      "name": "Novelty House",
      "dist": "0.107"
    },
    {
      "id": 8109,
      "name": "204 North Kitchen & Cocktails",
      "dist": "0.088"
    },
    {
      "id": 8110,
      "name": "Cowbell Burger & Whiskey Bar",
      "dist": "0.058"
    },
    {
      "id": 8111,
      "name": "Dandelion Market",
      "dist": "0.108"
    },
    {
      "id": 8112,
      "name": "The Cotton Room",
      "dist": "0.214"
    },
    {
      "id": 8113,
      "name": "Crave Dessert Bar",
      "dist": "0.202"
    },
    {
      "id": 8114,
      "name": "Stable Hand",
      "dist": "0.000"
    },
    {
      "id": 8115,
      "name": "Dram & Draught",
      "dist": "0.000"
    },
    {
      "id": 8116,
      "name": "STIR",
      "dist": "0.000"
    },
    {
      "id": 8117,
      "name": "Henrietta's",
      "dist": "0.000"
    },
    {
      "id": 8118,
      "name": "Indaco",
      "dist": "0.000"
    },
    {
      "id": 8119,
      "name": "O-Ku",
      "dist": "0.242"
    },
    {
      "id": 8120,
      "name": "Superica",
      "dist": "0.000"
    },
    {
      "id": 8121,
      "name": "Charlotte Beer Garden",
      "dist": "0.000"
    },
    {
      "id": 8122,
      "name": "Triple C Brewing Company",
      "dist": "0.225"
    },
    {
      "id": 8123,
      "name": "Wooden Robot Brewery",
      "dist": "0.000"
    },
    {
      "id": 8124,
      "name": "Hi-Wire Brewing",
      "dist": "0.106"
    },
    {
      "id": 8125,
      "name": "PIE.ZAA",
      "dist": "0.000"
    },
    {
      "id": 8126,
      "name": "PARA",
      "dist": "0.060"
    },
    {
      "id": 8127,
      "name": "Catalú",
      "dist": "0.000"
    },
    {
      "id": 8128,
      "name": "Folia",
      "dist": "0.000"
    },
    {
      "id": 8129,
      "name": "Bang Bang Burgers",
      "dist": "0.060"
    },
    {
      "id": 8130,
      "name": "Cheat's Cheesesteaks",
      "dist": "0.000"
    },
    {
      "id": 8131,
      "name": "Seoul Food Meat Co.",
      "dist": "0.000"
    },
    {
      "id": 8132,
      "name": "Salted Melon Market & Eatery",
      "dist": "0.000"
    },
    {
      "id": 8133,
      "name": "The Waterman Fish Bar",
      "dist": "0.091"
    },
    {
      "id": 8134,
      "name": "United House of Prayer for All People Cafeteria",
      "dist": "0.236"
    },
    {
      "id": 8135,
      "name": "Cava",
      "dist": "0.249"
    },
    {
      "id": 8136,
      "name": "Shake Shack",
      "dist": "0.000"
    },
    {
      "id": 8137,
      "name": "North Italia",
      "dist": "0.000"
    },
    {
      "id": 8138,
      "name": "Velvet Taco",
      "dist": "0.000"
    },
    {
      "id": 8139,
      "name": "Hawkers Asian Street Fare",
      "dist": "0.000"
    },
    {
      "id": 8140,
      "name": "Sixty Vines",
      "dist": "0.000"
    },
    {
      "id": 8141,
      "name": "The Salty Donut",
      "dist": "0.000"
    },
    {
      "id": 8142,
      "name": "Snooze, an A.M. Eatery",
      "dist": "0.000"
    },
    {
      "id": 8143,
      "name": "Flower Child",
      "dist": "0.211"
    },
    {
      "id": 8144,
      "name": "Culinary Dropout",
      "dist": "0.000"
    },
    {
      "id": 8145,
      "name": "The Capital Grille",
      "dist": "0.000"
    },
    {
      "id": 8146,
      "name": "Del Frisco's Double Eagle Steakhouse",
      "dist": "0.000"
    },
    {
      "id": 8147,
      "name": "Jeni's Splendid Ice Creams",
      "dist": "0.000"
    },
    {
      "id": 8148,
      "name": "Mac's Speed Shop",
      "dist": "0.135"
    },
    {
      "id": 8149,
      "name": "Ruby Sunshine",
      "dist": "0.000"
    },
    {
      "id": 8151,
      "name": "Cabo Fish Taco",
      "dist": "0.223"
    },
    {
      "id": 8152,
      "name": "Amélie's French Bakery — NoDa",
      "dist": "0.178"
    },
    {
      "id": 8154,
      "name": "Heist Brewery",
      "dist": "0.036"
    },
    {
      "id": 8156,
      "name": "Common Market — Plaza Midwood",
      "dist": "0.090"
    },
    {
      "id": 8164,
      "name": "Mama Ricotta's",
      "dist": "0.130"
    },
    {
      "id": 8165,
      "name": "King's Kitchen",
      "dist": "0.112"
    },
    {
      "id": 8167,
      "name": "Stoke",
      "dist": "0.058"
    },
    {
      "id": 8168,
      "name": "Rí Rá Irish Pub",
      "dist": "0.060"
    },
    {
      "id": 8169,
      "name": "Connolly's on 5th",
      "dist": "0.081"
    },
    {
      "id": 8176,
      "name": "Living Kitchen",
      "dist": "0.242"
    },
    {
      "id": 8183,
      "name": "Sunflour Baking Company",
      "dist": "0.201"
    }
  ],
  "no_geocode": [],
  "outside_bbox": []
}